[
  {
    "name": "Nicks Golf Course",
    "county": "Warren",
    "holes": 27,
    "type": "Public Course",
    "website": "https://www.itecasolutions.com/",
    "latitude": 40.0207,
    "longitude": -79.1297
  },
  {
    "name": "Shenandoah Valley Golf Club",
    "county": "Warren",
    "holes": 27,
    "type": "Public Course",
    "website": "https://www.shenandoahvalleygolfclub.com/",
    "latitude": 39.0207,
    "longitude": -78.1297
  },
  {
    "name": "Rock Harbor Golf Course",
    "county": "Frederick",
    "holes": 36,
    "type": "Public Course",
    "website": "https://www.rockharborgolf.com/",
    "latitude": 39.1792,
    "longitude": -78.1619
  },
  {
    "name":"Blue Ridge Shadows Golf Club",
    "county":"Warren",
    "holes":18,
    "type":"Public Course",
    "website":"https:\/\/www.blueridgeshadows.com\/",
    "latitude":38.98893,
    "longitude":-78.1863,
    "phone":"540-631-9661",
    "email":"info@blueridgeshadows.com"
  },
  {
    "name": "Front Royal Golf Club",
    "county": "Warren",
    "holes": 9,
    "type": "Public Course",
    "website": "https://www.frontroyalgolfclub.com/",
    "latitude": null,
    "longitude": null
  },
  {
    "name": "Sly Fox Golf Club",
    "county": "Frederick",
    "holes": 18,
    "type": "Public Course",
    "website": "https://slyfoxgolf.com/",
    "latitude": null,
    "longitude": null
  },
  {
    "name": "Winchester Country Club",
    "county": "Frederick",
    "holes": 18,
    "type": "Private Course",
    "website": "https://wcc1923.com/",
    "latitude": null,
    "longitude": null
  },
  {
    "name": "Caverns Country Club",
    "county": "Page",
    "holes": 18,
    "type": "Resort Course",
    "website": "https://www.cavernscountryclub.com/",
    "latitude": null,
    "longitude": null
  },
  {
    "name": "Shenvalee Golf Resort",
    "county": "Shenandoah",
    "holes": 27,
    "type": "Resort Course",
    "website": "https://www.shenvalee.com/",
    "latitude": null,
    "longitude": null
  },
  {
    "name": "Bryce Resort Golf Course",
    "county": "Shenandoah",
    "holes": 18,
    "type": "Resort Course",
    "website": "https://www.bryceresort.com/",
    "latitude": null,
    "longitude": null
  },
  {
    "name": "The Club at Ironwood",
    "county": "Augusta",
    "holes": 18,
    "type": "Semi-Private Course",
    "website": "https://www.theclubatironwood.com/",
    "latitude": null,
    "longitude": null
  },
  {
    "name": "Gypsy Hill Golf Course",
    "county": "Staunton",
    "holes": 18,
    "type": "Municipal Course",
    "website": "https://www.ci.staunton.va.us/visitors/gypsy-hill-golf",
    "latitude": null,
    "longitude": null
  },
  {
    "name": "Orchard Creek Golf Course",
    "county": "Waynesboro",
    "holes": 18,
    "type": "Semi-Private Course",
    "website": "https://orchardcreekva.com/",
    "latitude": null,
    "longitude": null
  },
  {
    "name": "Waynesboro Country Club",
    "county": "Waynesboro",
    "holes": 18,
    "type": "Private Course",
    "website": "http://www.waynesborogcc.com/",
    "latitude": null,
    "longitude": null
  },
  {
    "name": "Swannanoa Country Club",
    "county": "Augusta",
    "holes": 18,
    "type": "Public Course",
    "website": "http://www.swannanoa.com/",
    "latitude": null,
    "longitude": null
  },
  {
    "name": "Lakeview Golf Club",
    "county": "Rockingham",
    "holes": 27,
    "type": "Public Course",
    "website": "https://www.lakeviewgolf.net/",
    "latitude": null,
    "longitude": null
  },
  {
    "name": "Heritage Oaks Golf Course",
    "county": "Harrisonburg",
    "holes": 18,
    "type": "Municipal Course",
    "website": "https://www.heritageoaksgolfva.com/",
    "latitude": null,
    "longitude": null
  },
  {
    "name": "Spotswood Country Club",
    "county": "Harrisonburg",
    "holes": 18,
    "type": "Private Course",
    "website": "https://www.spotswoodcc.com/",
    "latitude": null,
    "longitude": null
  },
  {
    "name": "Packsaddle Ridge Golf Club",
    "county": "Rockingham",
    "holes": 18,
    "type": "Public Course",
    "website": "https://www.packsaddleridge.com/",
    "latitude": null,
    "longitude": null
  },
  {
    "name": "Massanutten Resort Golf",
    "county": "Rockingham",
    "holes": 36,
    "type": "Resort Course",
    "website": "https://www.massresort.com/play/golf/",
    "latitude": null,
    "longitude": null
  },
  {
    "name": "Mulligan\u2019s Golf Center",
    "county": "Rockingham",
    "holes": 0,
    "type": "Driving Range",
    "website": "https://www.mulligans-golf.com/",
    "latitude": null,
    "longitude": null
  },
  {
    "name": "Sandy Bottom Park Golf Course",
    "county": "Rockingham",
    "holes": 9,
    "type": "Public / Free Course",
    "website": "https://www.rockinghamcountyva.gov/BusinessDirectoryII.aspx?lngBusinessCategoryID=35",
    "latitude": null,
    "longitude": null
  },
  {
    "name": "The Omni Homestead Resort & Spa",
    "county": "Bath",
    "holes": 36,
    "type": "Resort Course",
    "website": "https://www.omnihotels.com/hotels/homestead-virginia/golf",
    "latitude": null,
    "longitude": null
  },
  {
    "name": "Cliff View Golf Course",
    "county": "Bath",
    "holes": 18,
    "type": "Public Course",
    "website": "https://www.cliffviewgolf.com/",
    "latitude": null,
    "longitude": null
  },
  {
    "name": "Poplar Grove Golf Club",
    "county": "Bath",
    "holes": 18,
    "type": "Private Course",
    "website": "https://www.poplargrovegolfclub.com/",
    "latitude": null,
    "longitude": null
  },
  {
    "name": "Devils Knob Golf Course",
    "county": "Bath",
    "holes": 18,
    "type": "Resort Course",
    "website": "https://www.wintergreenresort.com/activity/golf-overview/",
    "latitude": null,
    "longitude": null
  },
  {
    "name": "Needle's Eye Golf Club",
    "county": "Highland",
    "holes": 9,
    "type": "Private Course",
    "website": "https://www.needleseyegolfclub.com/",
    "latitude": null,
    "longitude": null
  },
  {
    "name": "Greene Hills Club",
    "county": "Greene",
    "holes": 18,
    "type": "Private Course",
    "website": "https://greenehillsclub.com/",
    "latitude": null,
    "longitude": null
  },
  {
    "name": "The Highlands Golf Club at Fisher Mountain",
    "county": "Pendleton",
    "holes": 18,
    "type": "Public Course",
    "website": "https://www.highlands-golf.com/",
    "latitude": null,
    "longitude": null
  },
  {
    "name": "Valley View Golf Course",
    "county": "Hardy",
    "holes": 18,
    "type": "Public Course",
    "website": "https://www.valleyviewgolfwv.com/",
    "latitude": null,
    "longitude": null
  },
  {
    "name": "Pocahontas Country Club",
    "county": "Pocahontas",
    "holes": 9,
    "type": "Semi-Private Course",
    "website": "https://www.pocahontasccwv.com/",
    "latitude": null,
    "longitude": null
  },
  {
    "name": "Canaan Valley Resort Golf Course",
    "county": "Tucker",
    "holes": 18,
    "type": "Resort Course",
    "website": "https://www.canaanresort.com/",
    "latitude": null,
    "longitude": null
  },
  {
    "name": "Capon Springs Golf Course",
    "county": "Hampshire",
    "holes": 9,
    "type": "Resort Course",
    "website": "https://www.caponsprings.net/",
    "latitude": null,
    "longitude": null
  },
  {
    "name": "Raven Golf Club at Snowshoe",
    "county": "Pocahontas",
    "holes": 18,
    "type": "Resort Course",
    "website": "https://www.snowshoemtn.com/",
    "latitude": null,
    "longitude": null
  },
  {
    "name": "Lexington Golf & Country Club",
    "county": "Rockbridge",
    "holes": 18,
    "type": "Semi-Private Course",
    "website": "https://www.lexingtongolfandcountryclub.com/",
    "latitude": null,
    "longitude": null
  },
  {
    "name": "Ingleside Golf Resort",
    "county": "Augusta",
    "holes": 18,
    "type": "Public Course",
    "website": "https://www.inglesidegolf.com/",
    "latitude": null,
    "longitude": null
  },
  {
    "name": "Vista Links Golf Course",
    "county": "Buena Vista",
    "holes": 18,
    "type": "Public Course",
    "website": "https://www.vistalinksgc.com/",
    "latitude": null,
    "longitude": null
  },
  {
    "name": "Cliftondale Country Club",
    "county": "Clifton Forge",
    "holes": 9,
    "type": "Semi-Private Course",
    "website": "https://www.facebook.com/people/Cliftondale-Country-Club/100063765237525/",
    "latitude": null,
    "longitude": null
  },
  {
    "name": "Millwood Country Club",
    "county": "Clarke",
    "holes": 9,
    "type": "Private Course",
    "website": "https://www.facebook.com/millwoodcountryclub/",
    "latitude": null,
    "longitude": null
  },
  {
    "name": "Natural Bridge Golf Club",
    "county": "Rockbridge",
    "holes": 18,
    "type": "Private Course",
    "website": "https://www.naturalbridgegolf.com/",
    "latitude": null,
    "longitude": null
  }
]
